City_ID,City,Lat,Lng,Max Temp,Humidity,Cloudiness,Wind Speed,Country,Date
0,egilsstadir,65.2653,-14.3948,-2.05,69,75,4.12,IS,1701997233
1,chernyshevskiy,63.0128,112.4714,-37.09,100,98,0.67,RU,1701997235
2,bredasdorp,-34.5322,20.0403,17.43,79,0,3.34,ZA,1701997236
3,grytviken,-54.2811,-36.5092,-0.78,94,100,7.2,GS,1701997238
4,port mathurin,-19.6833,63.4167,25.95,74,0,3.05,MU,1701997241
5,perryville,37.7242,-89.8612,11.62,54,0,6.69,US,1701997223
6,colonia,50.9333,6.95,3.82,74,0,5.66,DE,1701997244
7,rio grande,-32.035,-52.0986,19.06,76,38,8.28,BR,1701997082
8,yellowknife,62.456,-114.3525,-10.71,92,100,2.57,CA,1701996960
9,bilibino,68.0546,166.4372,-36.96,99,65,1.15,RU,1701997172
10,chinchilla,-26.75,150.6333,32.45,27,0,6.59,AU,1701997250
11,albany,42.6001,-73.9662,-1.32,88,66,0.18,US,1701997055
12,iqaluit,63.7506,-68.5145,-11.15,79,75,4.63,CA,1701997251
13,pahrump,36.2083,-115.9839,13.86,44,6,1.34,US,1701997086
14,vanino,49.0869,140.2543,-5.6,71,100,4.53,RU,1701997253
15,flin flon,54.7682,-101.865,-3.09,93,100,1.03,CA,1701997254
16,ust-nera,64.5667,143.2,-28.58,90,100,1.57,RU,1701997254
17,edinburgh of the seven seas,-37.0676,-12.3116,14.95,85,100,6.16,SH,1701997255
18,anta,25.15,76.3,16.62,73,0,0.98,IN,1701997256
19,hawaiian paradise park,19.5933,-154.9731,27.24,76,0,0.89,US,1701997257
20,fale old settlement,-9.3852,-171.2468,28.69,74,100,3.65,TK,1701997257
21,puerto natales,-51.7236,-72.4875,10.06,91,88,1.22,CL,1701997258
22,adamstown,-25.066,-130.1015,23.17,75,100,4.78,PN,1701997259
23,avarua,-21.2078,-159.775,27.03,61,75,6.17,CK,1701997260
24,port-aux-francais,-49.35,70.2167,4.63,98,100,15.56,TF,1701997261
25,olonkinbyen,70.9221,-8.7187,-2.93,76,83,5.68,SJ,1701997262
26,la passe,45.5549,-0.8967,12.13,91,100,4.48,FR,1701997263
27,freetown,8.484,-13.2299,26.26,82,0,3.36,SL,1701997264
28,polyarnyy,69.1989,33.4478,-14.69,96,88,7.01,RU,1701997267
29,alice springs,-23.7,133.8833,35.75,21,0,4.63,AU,1701997268
30,aykhal,66.0,111.5,-27.86,100,100,2.15,RU,1701997269
31,ilulissat,69.2167,-51.1,-2.99,59,100,0.0,GL,1701997270
32,tralee,52.2704,-9.7026,9.53,84,100,7.97,IE,1701997170
33,blackmans bay,-43.0167,147.3167,23.62,48,100,0.45,AU,1701997272
34,newman,37.3138,-121.0208,16.13,59,100,1.79,US,1701997145
35,as sulayyil,20.4607,45.5779,16.14,36,33,2.48,SA,1701997274
36,acoyapa,11.9703,-85.1711,24.4,84,0,4.62,NI,1701997275
37,aasiaat,68.7098,-52.8699,-11.6,86,100,0.62,GL,1701997276
38,khandyga,62.6667,135.6,-28.65,95,100,2.1,RU,1701997277
39,evergreen,39.6333,-105.3172,8.84,29,0,3.58,US,1701997278
40,sinop,41.7711,34.8709,8.88,79,100,3.74,TR,1701997279
41,bangassou,4.7413,22.8184,20.13,89,100,0.31,CF,1701997280
42,waitangi,-43.9535,-176.5597,13.79,73,91,8.45,NZ,1701997282
43,bethel,41.3712,-73.414,1.53,84,37,1.98,US,1701997274
44,westport,41.1415,-73.3579,2.99,84,23,0.89,US,1701997149
45,kurumkan,54.3,110.3,-22.15,93,30,1.79,RU,1701997285
46,lompoc,34.6391,-120.4579,16.4,69,0,11.83,US,1701997150
47,lebu,-37.6167,-73.65,12.25,87,1,6.57,CL,1701997287
48,kone,-21.0595,164.8658,29.36,49,100,3.64,NC,1701997289
49,ushuaia,-54.8,-68.3,8.81,70,0,8.75,AR,1701997124
50,port lincoln,-34.7333,135.8667,22.71,58,99,4.3,AU,1701997291
51,tura,25.5198,90.2201,15.94,96,100,2.11,IN,1701997293
52,hasaki,35.7333,140.8333,14.05,37,0,2.58,JP,1701997295
53,lata,40.1629,-8.3327,12.67,94,100,1.63,PT,1701997297
54,labytnangi,66.6572,66.4183,-22.52,87,99,3.62,RU,1701997299
55,jatai,-17.8814,-51.7144,25.43,42,9,0.15,BR,1701997300
56,eureka,40.8021,-124.1637,10.67,89,35,1.34,US,1701997301
57,belyy yar,53.6039,91.3903,-22.06,84,0,2.0,RU,1701997302
58,talnakh,69.4865,88.3972,-33.63,86,8,1.72,RU,1701997302
59,sao felix do xingu,-6.6447,-51.995,23.5,96,100,0.9,BR,1701997304
60,puerto ayora,-0.7393,-90.3518,24.19,96,53,2.24,EC,1701997305
61,tolanaro,-25.0319,46.9987,23.04,88,40,5.14,MG,1701997305
62,invercargill,-46.4,168.35,16.45,58,100,4.16,NZ,1701997306
63,ust-kamenogorsk,49.9789,82.6103,-25.04,77,100,2.0,KZ,1701997307
64,broome,42.2506,-75.833,2.01,92,100,2.24,US,1701997309
65,wailua homesteads,22.0669,-159.378,24.92,77,67,0.89,US,1701997310
66,oranjemund,-28.55,16.4333,15.58,96,11,2.09,NA,1701997311
67,anadyr,64.75,177.4833,-20.72,77,20,11.0,RU,1701997312
68,praia da vitoria,38.7333,-27.0667,19.31,94,75,11.74,PT,1701997312
69,santiago de cao,-7.9589,-79.2392,20.07,83,75,5.14,PE,1701997313
70,pacific grove,36.6177,-121.9166,13.14,88,75,1.54,US,1701997315
71,tazacorte,28.629,-17.9293,19.54,83,75,4.63,ES,1701997316
72,udachny,66.4167,112.4,-28.64,82,100,1.41,RU,1701997317
73,cruz das almas,-12.67,-39.1019,22.51,86,85,2.33,BR,1701997318
74,college,64.8569,-147.8028,-18.64,92,100,1.63,US,1701997318
75,karagay,58.2667,54.9368,-37.88,100,29,1.1,RU,1701997319
76,kroya,-7.6331,109.2461,27.67,77,100,0.56,ID,1701997320
77,ancud,-41.8697,-73.8203,10.53,84,0,1.52,CL,1701996825
78,dawei,14.0833,98.2,24.83,81,4,1.56,MM,1701997322
79,greeley,40.4233,-104.7091,11.49,50,7,3.13,US,1701997206
80,petropavlovsk-kamchatsky,53.0452,158.6483,-5.67,77,40,3.58,RU,1701997324
81,nueva villa de padilla,24.0167,-98.7833,19.61,78,100,3.85,MX,1701997324
82,oban,56.4127,-5.4706,4.37,91,92,3.25,GB,1701997325
83,viedma,-40.8135,-62.9967,13.83,60,0,4.53,AR,1701997327
84,georgetown,5.4112,100.3354,26.96,94,20,1.54,MY,1701997328
85,fort bragg,35.139,-79.006,7.91,57,0,2.06,US,1701997330
86,arar,30.9753,41.0381,14.01,62,0,2.06,SA,1701997331
87,natal,-5.795,-35.2094,27.36,78,20,4.12,BR,1701997246
88,guerrero negro,27.9769,-114.0611,18.6,72,0,8.26,MX,1701997332
89,isafjordur,66.0755,-23.124,-2.34,78,63,3.96,IS,1701997333
90,crucecita,-28.95,-58.9833,20.18,80,0,3.14,AR,1701997334
91,khovd,48.0056,91.6419,-11.81,52,0,0.55,MN,1701997335
92,vuktyl,63.8567,57.3094,-26.05,98,99,1.34,RU,1701997336
93,lihue,21.9789,-159.3672,25.25,77,58,1.44,US,1701997337
94,ulsteinvik,62.3432,5.8487,1.53,73,2,2.24,NO,1701997338
95,thompson,55.7435,-97.8558,-7.91,100,75,1.54,CA,1701997337
96,west island,-12.1568,96.8225,26.99,78,40,6.69,CC,1701997339
97,broken hill,-31.95,141.4333,39.37,13,100,14.5,AU,1701997340
98,maracaibo,10.6317,-71.6406,27.13,76,16,6.85,VE,1701997290
99,kuta,-8.7233,115.1723,28.97,79,40,1.54,ID,1701997342
100,punta arenas,-53.15,-70.9167,10.06,71,0,3.6,CL,1701997215
101,oroqen zizhiqi,50.5667,123.7167,-15.7,91,100,2.5,CN,1701997343
102,fakenham,52.83,0.8477,5.95,94,100,6.44,GB,1701997344
103,ghadamis,30.1337,9.5007,11.61,74,5,2.45,LY,1701997346
104,luganville,-15.5333,167.1667,27.29,83,100,4.34,VU,1701997347
105,naze,28.3667,129.4833,16.51,60,0,2.23,JP,1701997348
106,rabigh,22.7986,39.0349,25.71,68,0,1.18,SA,1701997349
107,tremonton,41.7119,-112.1655,4.33,79,40,3.09,US,1701997350
108,saldanha,-33.0117,17.9442,16.76,92,0,3.64,ZA,1701997351
109,altay,47.8667,88.1167,-16.75,77,11,3.22,CN,1701997353
110,cabedelo,-6.9811,-34.8339,27.37,79,65,5.78,BR,1701997354
111,lubao,14.9167,120.55,27.84,80,94,1.75,PH,1701997355
112,ingeniero jacobacci,-41.3427,-69.5448,20.71,35,62,6.17,AR,1701997356
113,nouadhibou,20.931,-17.0347,20.99,68,35,6.69,MR,1701997357
114,arkhangel'sk,64.5401,40.5433,-24.93,83,75,4.0,RU,1701997358
115,majene,-3.5403,118.9707,26.1,86,100,1.26,ID,1701997359
116,villa gesell,-37.2639,-56.973,14.47,69,0,5.5,AR,1701997360
117,kununurra,-15.7667,128.7333,33.99,49,71,2.57,AU,1701997121
118,tiksi,71.6872,128.8694,-33.89,100,84,1.99,RU,1701997361
119,codo,-4.4553,-43.8856,27.42,66,92,2.09,BR,1701997362
120,hotan,37.0997,79.9269,6.04,12,100,0.72,CN,1701997363
121,tsiombe,-25.3,45.4833,21.83,84,75,5.93,MG,1701997364
122,hammerfest,70.6634,23.6821,-5.75,73,62,7.72,NO,1701997365
123,conduaga,8.862,117.4893,28.49,75,100,1.31,PH,1701997366
124,port alfred,-33.5906,26.891,20.3,91,1,3.6,ZA,1701997367
125,happy valley-goose bay,53.3168,-60.3315,-3.83,68,100,7.72,CA,1701997216
126,stanley,54.868,-1.6985,4.6,96,100,2.57,GB,1701997368
127,ulladulla,-35.35,150.4667,32.09,47,94,3.79,AU,1701997127
128,mali,12.079,-12.2982,17.04,28,11,1.56,GN,1701997370
129,keflavik,64.0049,-22.5624,0.95,74,0,3.6,IS,1701997371
130,island harbour,50.724,-1.2758,9.96,94,100,2.24,GB,1701997372
131,kodiak,57.79,-152.4072,-2.27,46,0,4.63,US,1701997373
132,taoudenni,22.6783,-3.9836,20.14,28,100,4.56,ML,1701997374
133,la'ie,21.6477,-157.9253,28.67,63,7,2.24,US,1701997375
134,pont rouge,48.8833,-72.0825,-10.94,94,13,1.41,CA,1701997376
135,whitehorse,60.7161,-135.0538,-3.88,85,75,6.17,CA,1701997309
136,angra do heroismo,38.65,-27.2167,19.51,98,75,2.24,PT,1701997377
137,chivilcoy,-34.8957,-60.0167,17.21,69,0,2.13,AR,1701997378
138,ilha de mocambique,-15.0342,40.7358,25.88,79,11,5.04,MZ,1701997379
139,copala,16.65,-98.9833,26.04,79,82,1.82,MX,1701997380
140,pisco,-13.7,-76.2167,20.03,77,20,8.23,PE,1701997380
141,juneau,58.3019,-134.4197,1.9,100,100,2.15,US,1701997208
142,longyearbyen,78.2186,15.6401,-1.09,69,40,9.26,SJ,1701997382
143,nemuro,43.3236,145.575,1.92,57,42,12.78,JP,1701997383
144,jindabyne,-36.4167,148.6333,26.44,40,100,4.75,AU,1701997384
145,tanah rata,4.475,101.3704,19.26,90,100,0.37,MY,1701997385
146,champerico,14.3,-91.9167,30.3,76,61,1.92,GT,1701997386
147,laguna,38.421,-121.4238,12.28,92,0,2.57,US,1701997387
148,yaren,-0.5472,166.916,26.04,89,100,5.63,NR,1701997388
149,gadzhiyevo,69.2551,33.3362,-15.39,98,92,6.77,RU,1701997388
150,musoma,-1.5,33.8,22.11,74,73,0.93,TZ,1701997389
151,badger,64.8,-147.5333,-18.05,80,75,1.54,US,1701997390
152,granada,37.25,-3.25,9.61,79,100,4.03,ES,1701997391
153,totoras,-32.5844,-61.1685,19.03,64,0,3.55,AR,1701997392
154,jutai,-5.1833,-68.9,23.52,96,63,1.18,BR,1701997393
155,hami,42.8,93.45,-1.5,55,100,2.93,CN,1701997394
156,dolbeau-mistassini,48.8763,-72.212,-10.74,93,7,1.41,CA,1701997395
157,kapuskasing,49.4169,-82.4331,-0.95,93,100,2.57,CA,1701997214
158,port elizabeth,-33.918,25.5701,18.16,94,0,7.72,ZA,1701997396
159,cockburn town,21.4612,-71.1419,24.98,61,40,4.63,TC,1701997397
160,vilyuchinsk,52.9306,158.4028,-4.85,83,100,1.5,RU,1701997398
161,norlane,-38.1014,144.3542,33.49,38,100,11.32,AU,1701997399
162,moama,-36.1167,144.7833,30.31,34,100,4.68,AU,1701997400
163,choyr,46.3611,108.3611,-14.82,90,6,3.44,MN,1701997401
164,lakes,61.6071,-149.3086,-2.32,68,100,7.2,US,1701997402
165,qaqortoq,60.7167,-46.0333,2.85,58,100,8.27,GL,1701997403
166,bubaque,11.2833,-15.8333,27.52,72,31,5.43,GW,1701997404
167,alofi,-19.0595,-169.9187,29.94,66,75,5.14,NU,1701997405
168,zouerate,22.7187,-12.4521,18.47,38,100,3.54,MR,1701997408
169,correntina,-13.3433,-44.6367,22.54,46,5,0.98,BR,1701997194
170,arraial do cabo,-22.9661,-42.0278,27.92,65,0,7.72,BR,1701997411
171,waynesville,35.4887,-82.9887,6.6,70,5,2.24,US,1701997412
172,tselina,46.5338,41.0328,-0.51,93,100,8.83,RU,1701997413
173,zhalantun,48.0,122.7167,-13.94,95,97,2.45,CN,1701997414
174,saint-leu,-21.15,55.2833,24.46,83,54,2.63,RE,1701997415
175,kaffrine,14.1059,-15.5508,23.81,20,7,3.47,SN,1701997416
176,galappo,-4.2667,35.85,18.21,88,100,0.76,TZ,1701997417
177,hoeryong,42.4428,129.7508,-0.24,74,91,1.22,KP,1701997418
178,gurupi,-11.7292,-49.0686,29.58,43,100,2.15,BR,1701997332
179,ritchie,-29.038,24.6028,18.32,72,0,1.74,ZA,1701997422
180,achinsk,56.2694,90.4993,-23.23,100,100,0.89,RU,1701997423
181,ribeira grande,38.5167,-28.7,19.41,91,100,12.82,PT,1701997425
182,sur,22.5667,59.5289,21.6,53,0,0.39,OM,1701997426
183,sakaiminato,35.55,133.2333,7.99,81,0,1.54,JP,1701997426
184,weno,7.4515,151.8468,28.97,74,100,6.69,FM,1701997427
185,redencao,-4.2258,-38.7306,24.61,89,54,1.47,BR,1701997428
186,constantia,44.1833,28.65,0.39,90,100,7.0,RO,1701997429
187,bitche,49.0501,7.4267,2.22,84,100,2.18,FR,1701997429
188,selfoss,63.9331,-20.9971,-4.45,62,57,4.81,IS,1701997430
189,jamestown,42.097,-79.2353,3.08,98,20,0.89,US,1701997300
190,allapalli,19.4167,80.0667,17.2,98,28,1.54,IN,1701997432
191,margaret river,-33.95,115.0667,18.06,52,73,5.88,AU,1701997432
192,anantnag,33.7333,75.15,1.48,41,100,0.56,IN,1701997433
193,yambio,4.5721,28.3955,21.19,86,0,1.02,SS,1701997434
194,mek'ele,13.4967,39.4753,12.78,72,0,2.98,ET,1701997435
195,plettenberg bay,-34.0527,23.3716,18.24,68,0,5.03,ZA,1701997435
196,petrov val,50.1434,45.2096,-6.82,73,18,5.44,RU,1701997436
197,vadso,70.0744,29.7487,-9.91,85,100,8.23,NO,1701997437
198,pimentel,-6.8367,-79.9342,21.16,78,0,8.23,PE,1701997438
199,papatowai,-46.5619,169.4708,16.94,53,100,3.62,NZ,1701997438
200,crane,31.3974,-102.3501,18.82,31,0,4.75,US,1701997439
201,veraval,20.9,70.3667,21.73,62,4,5.73,IN,1701997440
202,saint-francois,46.4154,3.9054,7.58,88,75,5.14,FR,1701997440
203,kotido,2.9806,34.1331,24.25,44,98,2.78,UG,1701997441
204,fort mcmurray,56.7268,-111.381,-3.23,80,0,3.09,CA,1701997421
205,east london,-33.0153,27.9116,21.1,87,15,2.9,ZA,1701997444
206,haiku-pauwela,20.9219,-156.3051,27.32,61,40,4.12,US,1701997447
207,sihanoukville,10.6093,103.5296,25.97,100,40,0.51,KH,1701997449
208,glace bay,46.1969,-59.957,-1.55,73,100,8.23,CA,1701997450
209,tongshan,34.1805,117.1571,14.62,43,0,5.37,CN,1701997451
210,mili,6.0815,171.735,27.86,83,99,10.21,MH,1701997452
211,bikenibeu village,1.3673,173.1241,29.98,74,75,3.09,KI,1701997453
212,klyuchi,52.2667,79.1667,-22.33,72,87,3.77,RU,1701997454
213,utrik,11.2278,169.8474,27.52,77,40,10.44,MH,1701997455
214,blackwell,36.8045,-97.2828,17.19,67,0,5.66,US,1701997323
215,nova sintra,14.8667,-24.7167,22.12,67,5,3.33,CV,1701997457
216,ekibastuz,51.6667,75.3667,-24.24,75,67,4.8,KZ,1701997458
217,riberalta,-10.9833,-66.1,25.92,74,14,0.52,BO,1701997459
218,benghazi,32.1167,20.0667,18.4,56,90,7.9,LY,1701997460
219,peniche,39.3558,-9.3811,15.62,92,1,6.9,PT,1701997461
220,bereket,39.2446,55.5154,5.74,43,41,4.11,TM,1701997461
221,revelstoke,50.9832,-118.2023,1.01,93,100,2.57,CA,1701997326
222,mamuju,-2.6748,118.8885,25.71,89,100,1.57,ID,1701997463
223,tazovsky,67.4667,78.7,-27.25,94,6,5.79,RU,1701997464
224,hutchinson,38.0608,-97.9298,13.91,74,0,3.6,US,1701997286
225,saynshand,44.8824,110.1163,-10.68,85,53,3.95,MN,1701997466
226,yurimaguas,-5.9,-76.0833,25.44,77,100,0.24,PE,1701997467
227,lake albert,-35.1667,147.3833,30.21,30,100,5.64,AU,1701997468
228,selibaby,15.159,-12.1829,26.26,16,85,4.4,MR,1701997469
229,saipan,15.1355,145.701,29.39,74,40,8.23,MP,1701997469
230,uturoa,-16.7333,-151.4333,26.94,80,17,4.51,PF,1701997471
231,puerto baquerizo moreno,-0.9,-89.6,24.05,89,63,4.84,EC,1701997374
232,zhuanghe,39.7008,122.9911,8.29,94,82,1.46,CN,1701997473
233,touros,-5.1989,-35.4608,26.59,76,45,6.14,BR,1701997351
234,seneca,41.1167,-83.1166,6.77,81,2,3.58,US,1701997474
235,ornskoldsvik,63.2909,18.7153,-2.47,100,100,3.09,SE,1701997475
236,luderitz,-26.6481,15.1594,16.02,78,0,5.69,NA,1701997476
237,callao,-12.0667,-77.15,22.62,77,40,4.12,PE,1701997335
238,santana,-0.0583,-51.1817,28.1,83,40,3.09,BR,1701997455
239,santa cruz,-17.8,-63.1667,29.7,62,40,4.12,BO,1701997209
240,cesvaine,56.9667,26.3167,-9.5,95,100,3.02,LV,1701997479
241,medicine hat,50.0501,-110.6683,1.55,96,100,6.17,CA,1701997284
242,norfolk,42.1668,-71.2495,-0.79,71,8,1.49,US,1701997243
243,tangalle,6.024,80.7911,24.09,90,18,0.93,LK,1701997482
244,ca mau,9.1769,105.15,26.31,83,100,3.55,VN,1701997483
245,chernyshevsk,52.5243,117.0174,-20.75,97,100,0.6,RU,1701997485
246,howrah,22.5892,88.3103,20.0,83,100,4.12,IN,1701997485
247,sinabang,2.4803,96.3801,26.75,82,100,0.39,ID,1701997486
248,san antonio de pale,-1.4014,5.6325,26.19,82,100,2.74,GQ,1701997487
249,altamirano,16.8833,-92.15,12.63,100,95,0.78,MX,1701997488
250,kpandu,6.9954,0.2931,25.72,83,100,3.31,GH,1701997488
251,antsiranana,-12.2787,49.2917,25.71,80,6,6.17,MG,1701997489
252,nuku'alofa,-21.1333,-175.2,28.19,78,40,3.6,TO,1701997490
253,diapaga,12.0708,1.7889,23.8,14,100,2.98,BF,1701997491
254,richards bay,-28.783,32.0377,21.34,93,28,6.11,ZA,1701997492
255,koundara,12.4833,-13.3,23.71,28,100,3.13,GN,1701997492
256,qamdo,31.1667,97.2333,-4.93,54,100,0.86,CN,1701997429
257,valparaiso,-33.0393,-71.6273,13.8,94,40,2.06,CL,1701997494
258,nokia,61.4667,23.5,-5.64,92,20,4.12,FI,1701997495
259,phai sali,15.5976,100.6585,24.43,70,57,2.35,TH,1701997495
260,hilo,19.7297,-155.09,30.16,82,0,2.24,US,1701997280
261,fortuna,40.5982,-124.1573,10.52,89,62,3.98,US,1701997180
262,mandan,46.8267,-100.8896,6.09,72,0,7.72,US,1701997498
263,santa eularia des riu,38.9846,1.5341,15.95,89,75,8.23,ES,1701997499
264,hamilton,39.1834,-84.5333,10.0,64,0,4.12,US,1701997499
265,nassau,40.7507,-73.5829,4.26,79,20,1.54,US,1701997016
266,dauphin,51.1494,-100.0502,2.08,93,100,7.2,CA,1701997501
267,arkalyk,50.2486,66.9114,-20.47,66,7,5.86,KZ,1701997502
268,vorgashor,67.5833,63.95,-25.25,98,100,1.74,RU,1701997504
269,kuleshovka,47.078,39.5579,0.23,71,100,8.63,RU,1701997505
270,itoman,26.1247,127.6694,21.01,60,20,3.09,JP,1701997506
271,fasa,28.9383,53.6482,4.58,52,0,2.06,IR,1701997507
272,puerto libertad,-25.9164,-54.6209,22.05,100,100,1.09,AR,1701997508
273,muisne,0.6,-80.0333,25.4,89,50,2.73,EC,1701997509
274,grand falls-windsor,48.9332,-55.6649,-4.72,79,100,2.24,CA,1701997510
275,panaba,21.2833,-88.2667,21.42,80,100,3.76,MX,1701997511
276,hermanus,-34.4187,19.2345,18.8,77,26,3.33,ZA,1701997512
277,shetpe,44.1667,52.1167,-0.71,70,99,6.02,KZ,1701997514
278,george town,5.4112,100.3354,26.96,94,20,1.54,MY,1701997515
279,igarka,67.4667,86.5833,-29.69,96,82,3.89,RU,1701997515
280,souillac,-20.5167,57.5167,25.21,94,75,0.0,MU,1701997516
281,uttar char fasson,22.2332,90.7132,21.03,91,56,2.14,BD,1701997518
282,verkhniy baskunchak,48.2256,46.7217,-4.35,81,26,5.91,RU,1701997519
283,flying fish cove,-10.4217,105.6791,26.82,78,75,4.63,CX,1701997520
284,lido adriano,44.4123,12.3086,4.54,1,18,2.68,IT,1701997521
285,corner brook,48.9667,-57.9484,-4.91,90,100,5.88,CA,1701997316
286,nichinan,31.6,131.3667,8.82,64,0,0.55,JP,1701997523
287,minas de marcona,-15.2119,-75.1103,15.4,79,27,5.26,PE,1701997524
288,cabo san lucas,22.8909,-109.9124,25.98,65,0,3.17,MX,1701996952
289,kunming,25.0389,102.7183,10.96,100,100,5.0,CN,1701997525
290,coahuayana de hidalgo,18.7,-103.6583,25.06,82,6,0.09,MX,1701997526
291,isangel,-19.55,169.2667,29.06,58,75,5.14,VU,1701997527
292,wenatchee,47.4235,-120.3103,7.25,72,0,4.63,US,1701997442
293,tabou,4.423,-7.3528,26.57,80,33,3.26,CI,1701997529
294,hawick,55.4227,-2.7867,5.62,99,100,1.68,GB,1701997530
295,vrhnika,45.9661,14.2956,2.37,93,29,0.23,SI,1701997531
296,poronaysk,49.2167,143.1167,-1.52,70,100,6.96,RU,1701997532
297,nyurba,63.2842,118.3319,-51.59,100,88,1.14,RU,1701997533
298,lensk,60.7253,114.9278,-43.93,100,77,1.58,RU,1701997534
299,coquimbo,-29.9533,-71.3436,15.85,88,100,3.09,CL,1701997222
300,genhe,50.7833,121.5167,-16.67,92,100,1.43,CN,1701997535
301,ambovombe,-25.1667,46.0833,21.1,88,59,5.44,MG,1701997537
302,kambove,-10.8764,26.5969,16.17,95,63,0.66,CD,1701997538
303,san luis de la loma,17.2706,-100.8939,25.74,80,14,1.12,MX,1701997539
304,middelburg,-25.7751,29.4648,15.97,79,67,3.41,ZA,1701997540
305,atafu village,-8.5421,-172.5159,29.23,71,46,2.15,TK,1701997541
306,manoharpur,27.3,75.95,13.83,58,0,0.57,IN,1701997542
307,mahibadhoo,3.7833,72.9667,28.36,76,99,9.84,MV,1701997543
308,vanimo,-2.6741,141.3028,27.45,85,100,3.98,PG,1701997543
309,meizhou,24.2977,116.1072,17.05,43,5,0.35,CN,1701997544
310,wangkui,46.8333,126.5,-8.58,85,100,4.94,CN,1701997545
311,susuman,62.7833,148.1667,-25.57,97,100,0.45,RU,1701997546
312,ambodifotatra,-16.9833,49.85,25.85,77,100,7.85,MG,1701997547
313,taulaga,-11.0553,-171.0883,28.21,75,100,4.99,AS,1701997547
314,myeik,12.4333,98.6,24.98,85,60,1.8,MM,1701997548
315,okha,53.5739,142.9478,-5.18,93,100,9.27,RU,1701997550
316,moussoro,13.6408,16.4901,21.57,16,100,4.79,TD,1701997550
317,turpan,42.9333,89.1667,-0.09,58,98,0.39,CN,1701997551
318,enewetak,11.3474,162.3373,27.69,78,73,9.39,MH,1701997552
319,tamanrasset,22.785,5.5228,11.95,19,0,2.06,DZ,1701997553
320,bangjun,39.9911,117.2628,5.43,37,100,1.02,CN,1701997553
321,khorugh,37.4897,71.553,-1.6,48,100,0.58,TJ,1701997554
322,dunedin,-45.8742,170.5036,17.11,69,100,4.02,NZ,1701997555
323,tasqala,51.1167,50.3167,-9.64,72,11,3.7,KZ,1701997556
324,yeppoon,-23.1333,150.7333,28.88,60,45,8.1,AU,1701997557
325,new norfolk,-42.7826,147.0587,24.28,18,100,0.68,AU,1701997558
326,calama,-22.4667,-68.9333,21.27,10,0,6.17,CL,1701997540
327,tuy hoa,13.0833,109.3,23.81,89,99,2.4,VN,1701997559
328,port saint john's,-31.6229,29.5448,20.26,73,8,2.5,ZA,1701997560
329,nabire,-3.3667,135.4833,28.11,76,96,0.45,ID,1701997561
330,zaozersk,69.4005,32.4476,-15.79,94,94,4.12,RU,1701997562
331,patnongon,10.9132,121.9937,28.4,59,64,1.25,PH,1701997563
332,weiser,44.251,-116.9693,6.11,84,100,0.45,US,1701997564
333,craig,40.5153,-107.5464,0.97,75,100,4.12,US,1701997565
334,yarmouth,41.7057,-70.2286,1.09,64,0,7.6,US,1701997566
335,iskateley,67.6803,53.1512,-14.43,96,100,3.58,RU,1701997567
336,kayangel,8.0823,134.7173,28.31,76,100,4.5,PW,1701997568
337,bel ombre,-4.6167,55.4167,24.91,94,40,2.06,SC,1701997569
338,tukrah,32.5341,20.5791,17.97,56,99,6.72,LY,1701997570
339,baturaja,-4.1333,104.1667,25.78,90,99,0.28,ID,1701997571
340,bury st edmunds,52.2463,0.7111,6.55,95,100,2.57,GB,1701997366
341,kaa-khem,51.6833,94.7333,-20.33,83,99,2.03,RU,1701997574
342,chonchi,-42.6128,-73.8092,11.56,89,0,1.17,CL,1701997522
343,vernon,50.2581,-119.2691,4.78,87,100,1.03,CA,1701997517
344,horsham,51.064,-0.3272,10.14,87,20,2.06,GB,1701997077
345,saint-pierre,-21.3393,55.4781,23.82,88,100,1.03,RE,1701997577
346,bunia,1.5667,30.25,16.4,91,12,1.07,CD,1701997579
347,ko pha ngan,9.7578,100.0291,23.38,73,73,1.52,TH,1701997579
348,motueka,-41.1333,173.0167,19.58,54,20,4.23,NZ,1701997581
349,sambava,-14.2667,50.1667,24.37,88,100,4.15,MG,1701997582
350,burnaby,49.2664,-122.9526,6.76,93,75,6.17,CA,1701997349
351,dudinka,69.4058,86.1778,-31.85,96,9,2.68,RU,1701997584
352,tashtyp,52.7939,89.8983,-16.27,78,87,3.89,RU,1701997585
353,port antonio,18.18,-76.4612,29.95,82,82,6.54,JM,1701997101
354,lewistown,40.5992,-77.5714,2.41,96,0,0.0,US,1701997587
355,nykvarn,59.8,18.3,1.01,99,100,2.39,SE,1701997588
356,alo,7.4178,6.7371,26.03,52,91,1.35,NG,1701997589
357,itupiranga,-5.1347,-49.3267,26.18,95,100,1.25,BR,1701997590
358,alesund,62.4723,6.1549,1.53,68,0,6.17,NO,1701997591
359,remire-montjoly,4.9167,-52.2667,27.02,89,40,2.57,GF,1701997592
360,sitka,57.0531,-135.33,2.94,87,100,1.54,US,1701997593
361,san rafael,-34.6177,-68.3301,25.3,23,0,4.3,AR,1701997594
362,nuuk,64.1835,-51.7216,3.34,44,89,5.14,GL,1701997595
363,aja,30.9415,31.2915,13.98,89,97,0.84,EG,1701997596
364,la sarre,48.8002,-79.1996,-4.44,96,100,1.66,CA,1701997365
365,bardai,11.65,7.2333,19.72,20,38,3.39,NG,1701997597
366,okhotsk,59.3833,143.3,-4.1,91,100,20.95,RU,1701997598
367,shadrinsk,56.0852,63.6335,-29.86,93,5,2.11,RU,1701997599
368,menaka,15.9182,2.4022,23.88,14,100,4.04,ML,1701997600
369,suva,-18.1416,178.4415,26.71,78,75,2.57,FJ,1701997479
370,ibirama,-27.0569,-49.5178,23.51,99,100,0.96,BR,1701997602
371,psyzh,44.2331,42.0183,1.42,96,100,3.07,RU,1701997603
372,chakari,-18.0629,29.8925,19.11,45,6,2.23,ZW,1701997604
373,dakhla,23.6848,-15.958,19.6,81,52,8.92,EH,1701997604
374,boende,-0.2167,20.8667,21.34,99,91,1.21,CD,1701997605
375,kalutara,6.5831,79.9593,25.02,89,30,1.54,LK,1701997606
376,barra de santo antonio,-9.4047,-35.5072,24.6,82,95,3.56,BR,1701997607
377,metro,-5.1131,105.3067,26.93,75,100,2.87,ID,1701997608
378,ryotsu-minato,38.0833,138.4333,13.39,62,63,7.58,JP,1701997609
379,kingston,17.997,-76.7936,29.53,74,20,1.54,JM,1701997254
380,celestun,20.8667,-90.4,23.15,76,100,5.78,MX,1701997610
381,botro,7.8525,-5.3106,24.97,62,15,2.02,CI,1701997611
382,caleta de carquin,-11.0925,-77.6267,20.38,86,63,4.47,PE,1701997612
383,isla aguada,18.7833,-91.4667,25.02,70,100,4.55,MX,1701997613
384,reggane,26.7158,0.1714,19.13,31,100,2.95,DZ,1701997613
385,sarandi del yi,-33.35,-55.6333,13.26,90,0,3.76,UY,1701997615
386,constantina,36.365,6.6147,6.67,81,0,1.03,DZ,1701997616
387,kerikeri,-35.2268,173.9474,22.23,41,0,1.29,NZ,1701997617
388,kailua-kona,19.6406,-155.9956,28.61,67,100,7.2,US,1701997617
389,badeggi,9.05,6.15,24.62,23,84,1.38,NG,1701997618
390,mantua,45.1667,10.7833,1.7,85,89,0.89,IT,1701997619
391,port-vila,-17.7338,168.3219,26.69,72,99,8.44,VU,1701997620
392,santa rosa de calamuchita,-32.0691,-64.5363,19.94,52,0,0.8,AR,1701997621
393,north cowichan,48.8413,-123.686,7.42,92,100,1.37,CA,1701997622
394,lichinga,-13.3128,35.2406,18.41,86,94,1.43,MZ,1701997622
395,brezina,33.0989,1.2608,11.97,55,89,2.16,DZ,1701997624
396,baruun-urt,46.6806,113.2792,-15.61,97,100,2.23,MN,1701997625
397,mount isa,-20.7333,139.5,33.87,24,0,3.09,AU,1701997627
398,beloyarskiy,63.7119,66.6722,-26.67,97,100,1.79,RU,1701997628
399,ambon,-3.6954,128.1814,31.08,70,40,2.06,ID,1701997629
400,xinyuan,37.3,99.0,-10.01,29,0,3.43,CN,1701997630
401,kuqa,41.7278,82.9364,2.37,44,100,2.7,CN,1701997630
402,port blair,11.6667,92.75,25.02,94,20,1.03,IN,1701997631
403,katsuura,35.1333,140.3,13.65,41,0,2.85,JP,1701997632
404,taro,-8.3862,115.28,25.0,75,100,1.07,ID,1701997633
405,winburg,-28.518,27.0093,14.52,92,0,4.75,ZA,1701997634
406,severobaykal'sk,55.65,109.3167,-26.94,91,45,4.43,RU,1701997635
407,esquina,-30.0144,-59.5272,19.14,83,0,2.55,AR,1701997636
408,sirte,31.2089,16.5887,18.7,60,97,6.08,LY,1701997637
409,bata,1.8639,9.7658,25.09,89,99,3.77,GQ,1701997638
410,ouro sogui,15.6,-13.3167,26.18,13,12,4.81,SN,1701997639
411,kargat,55.1956,80.2811,-36.52,99,8,1.71,RU,1701997640
412,kudahuvadhoo,2.6708,72.8944,28.1,76,100,9.78,MV,1701997641
413,carnarvon,-24.8667,113.6333,23.05,59,0,9.91,AU,1701997642
414,sandakan,5.8402,118.1179,26.08,89,100,1.83,MY,1701997643
415,shimoda,34.6667,138.95,15.61,57,19,2.77,JP,1701997643
416,geraldton,-28.7667,114.6,23.23,46,40,9.26,AU,1701997644
417,madaoua,14.073,5.96,21.29,15,100,3.76,NE,1701997645
418,wuwei,37.9281,102.6414,0.81,29,0,0.63,CN,1701997646
419,dourbali,11.8091,15.8632,22.48,16,79,3.98,TD,1701997647
420,nizhneangarsk,55.7833,109.55,-27.22,88,52,4.02,RU,1701997648
421,novodvinsk,64.4165,40.8122,-25.12,99,89,1.65,RU,1701997648
422,mahanoro,-19.9,48.8,22.14,87,100,1.14,MG,1701997650
423,road town,18.4167,-64.6167,27.05,78,20,2.06,VG,1701997617
424,yuzhno-kurilsk,44.0306,145.8556,3.54,89,100,13.18,RU,1701997651
425,beyneu,45.3167,55.2,-1.71,63,100,6.35,KZ,1701997654
426,at-bashi,41.1702,75.8106,-5.91,57,32,0.98,KG,1701997654
427,mejit,10.2753,170.8646,27.65,81,91,11.05,MH,1701997655
428,batang,-6.4846,110.7083,28.75,73,32,3.1,ID,1701997656
429,laojunmiao,39.8333,97.7333,-2.71,35,0,1.29,CN,1701997657
430,ust'-ilimsk,58.0006,102.6619,-36.54,91,34,1.79,RU,1701997657
431,virginia beach,36.8529,-75.978,7.79,64,20,3.6,US,1701997479
432,undurkhaan,47.3194,110.6556,-20.41,84,28,1.14,MN,1701997659
433,offa,8.15,4.7167,23.09,56,100,1.77,NG,1701997660
434,tomatlan,19.9333,-105.25,23.45,77,17,0.77,MX,1701997661
435,huarmey,-10.0681,-78.1522,20.76,85,75,4.0,PE,1701997661
436,umm kaddadah,13.6017,26.6876,17.3,21,100,4.11,SD,1701997662
437,prieska,-29.6641,22.7474,21.1,35,0,5.11,ZA,1701997663
438,kuanda,56.3161,116.0806,-29.44,97,100,1.31,RU,1701997664
439,chegdomyn,51.1167,133.0167,-18.33,90,99,0.48,RU,1701997665
440,kalmunai,7.4167,81.8167,25.74,87,65,2.42,LK,1701997665
441,axim,4.8699,-2.2405,26.36,83,100,2.67,GH,1701997666
442,el matama,16.7095,33.3565,22.32,33,7,4.21,SD,1701997667
443,barra da estiva,-13.6261,-41.3269,18.65,74,75,2.1,BR,1701997668
444,harnai,30.1005,67.9374,9.96,24,0,1.3,PK,1701997669
445,makarov,48.6333,142.8,-1.65,73,100,9.08,RU,1701997669
446,guiuan,11.0333,125.7247,27.28,82,11,5.34,PH,1701997670
447,liman,48.9884,37.8023,-2.34,80,100,7.66,UA,1701997671
448,alaghsas,17.0187,8.0168,20.04,18,96,3.23,NE,1701997672
449,dankama,13.2978,7.7949,19.74,19,95,3.54,NG,1701997672
450,sabang,5.8933,95.3214,27.46,82,100,6.82,ID,1701997673
451,antigonish,45.6169,-61.9986,-0.36,85,82,3.58,CA,1701997449
452,dongola,19.1667,30.4833,16.84,28,10,4.84,SD,1701997675
453,hazro city,33.9091,72.4921,10.74,30,100,1.26,PK,1701997675
454,dzuunharaa,48.8523,106.4579,-20.59,92,100,1.59,MN,1701997676
455,nishifukuma,33.7667,130.4667,11.27,42,0,2.6,JP,1701997677
456,rongelap,11.1635,166.8941,27.44,83,26,9.46,MH,1701997677
457,dali,25.7,100.1833,10.21,96,100,0.77,CN,1701997678
458,itaparica,-12.8883,-38.6786,26.96,81,99,3.54,BR,1701997679
459,ad dabbah,18.05,30.95,17.96,24,59,4.11,SD,1701997680
460,luang prabang,19.8856,102.1347,21.94,85,89,0.47,LA,1701997680
461,rondonopolis,-16.4708,-54.6356,27.15,59,16,1.17,BR,1701997681
462,aldinga beach,-35.2793,138.4604,33.38,53,99,6.61,AU,1701997682
463,eregli,37.5133,34.0467,9.55,68,99,0.73,TR,1701997683
464,nelson bay,-32.7167,152.15,33.03,70,46,5.81,AU,1701997684
465,kerema,-7.9631,145.7785,28.5,72,100,2.37,PG,1701997685
466,rosso,16.4986,-15.8153,24.03,15,93,5.0,SN,1701997458
467,shingu,33.7333,135.9833,13.0,42,0,0.3,JP,1701997589
468,vilyuysk,63.7553,121.6247,-45.56,100,96,1.34,RU,1701997687
469,daru,-9.0763,143.2092,29.63,64,81,3.69,PG,1701997688
470,namibe,-15.1961,12.1522,22.68,78,100,3.81,AO,1701997392
471,bayanhongor,46.7167,100.1167,-21.07,82,13,1.88,MN,1701997691
472,hobyo,5.3505,48.5268,25.68,69,2,7.03,SO,1701997692
473,tionk essil,12.7856,-16.5217,23.49,64,8,2.41,SN,1701997692
474,nizhneudinsk,54.9076,99.0276,-30.01,98,99,0.98,RU,1701997694
475,ajaccio,42.0,8.9167,5.99,76,100,3.6,FR,1701997694
476,acapulco de juarez,16.8634,-99.8901,28.9,74,40,3.09,MX,1701997695
477,lospalos,-8.5186,127.0025,31.17,50,0,1.38,TL,1701997696
478,ta`u,-14.2336,-169.5144,27.32,82,96,5.25,AS,1701997697
479,hovd,48.0056,91.6419,-11.81,52,0,0.55,MN,1701997698
480,mammoth lakes,37.6485,-118.9721,1.4,30,0,6.17,US,1701997699
481,mahasamund,21.1,82.1,19.15,92,99,1.55,IN,1701997700
482,brisas de zicatela,15.8369,-97.0419,28.29,57,40,1.54,MX,1701997701
483,gaigeturi,33.4644,126.3183,16.6,65,0,7.89,KR,1701997702
484,quarai,-30.3875,-56.4514,18.76,86,0,3.56,BR,1701997703
485,phetchaburi,12.9667,99.5833,24.08,88,94,0.96,TH,1701997704
486,eyl,7.9803,49.8164,22.92,66,7,6.23,SO,1701997705
487,kota,25.1833,75.8333,16.7,68,0,0.76,IN,1701997705
488,imbituba,-28.24,-48.6703,22.72,96,100,1.29,BR,1701997619
489,koubia,11.5833,-11.9,19.16,38,5,1.56,GN,1701997707
490,kourou,5.1552,-52.6478,27.03,92,20,3.71,GF,1701997547
491,al bawiti,28.3492,28.8659,13.25,51,97,0.85,EG,1701997709
492,yanchep,-31.55,115.6833,23.34,50,0,5.83,AU,1701997710
493,muroto-misakicho,33.2833,134.15,14.58,59,0,0.99,JP,1701997711
494,duluth,46.7833,-92.1066,4.6,91,0,8.75,US,1701997651
495,christchurch,-43.5333,172.6333,21.97,55,40,5.66,NZ,1701997550
496,copiapo,-27.3667,-70.3333,13.83,56,0,0.97,CL,1701997583
497,ust'-talovka,50.5493,81.85,-21.64,100,100,0.43,KZ,1701997714
498,marshalltown,42.0494,-92.908,11.13,77,0,5.14,US,1701997715
499,lerwick,60.1545,-1.1494,6.0,82,100,16.17,GB,1701997716
500,saudarkrokur,65.7461,-19.6394,-7.16,79,8,3.3,IS,1701997717
501,cedeira,43.6797,-8.0209,12.22,77,9,10.0,ES,1701997718
502,waddan,29.1614,16.139,12.38,93,7,3.89,LY,1701997718
503,floro,61.5996,5.0328,1.98,64,4,5.14,NO,1701997719
504,vila franca do campo,37.7167,-25.4333,19.23,99,100,5.67,PT,1701997720
505,cururupu,-1.8283,-44.8683,24.72,87,40,1.84,BR,1701997567
506,hadibu,12.65,54.0333,24.63,69,11,4.91,YE,1701997722
507,nieuw amsterdam,5.8833,-55.0833,26.68,88,9,5.06,SR,1701997722
508,neiafu,-18.65,-173.9833,31.38,66,40,4.12,TO,1701997723
509,bayganin,48.6947,55.8742,-9.33,79,89,4.94,KZ,1701997725
510,khromtau,50.2503,58.4347,-18.9,88,33,5.62,KZ,1701997726
511,same,-4.0667,37.7333,20.66,90,72,1.63,TZ,1701997727
512,khoyniki,51.8911,29.9552,-5.95,96,100,3.37,BY,1701997727
513,torquay,50.4638,-3.5143,9.4,90,8,1.79,GB,1701997728
514,ganghwa-gun,37.7472,126.4856,9.94,75,0,8.08,KR,1701997729
515,san patricio,28.017,-97.5169,22.13,75,100,5.78,US,1701997730
516,menongue,-14.6585,17.691,17.73,93,100,0.37,AO,1701997730
517,yigo village,13.5361,144.8886,29.62,70,75,6.69,GU,1701997731
518,mount pearl,47.5166,-52.7813,-2.14,86,90,4.02,CA,1701997732
519,peace river,56.2501,-117.286,-3.8,77,17,2.59,CA,1701997733
520,kapoeta,4.7717,33.5903,26.58,43,16,1.41,SS,1701997733
521,uzgen,40.7699,73.3007,4.35,39,99,0.82,KG,1701997734
522,karyes,37.3,22.5,5.67,85,49,3.88,GR,1701997735
523,sao joao da barra,-21.6403,-41.0511,24.66,84,3,9.3,BR,1701997736
524,cotonou,6.3654,2.4183,28.99,79,40,5.14,BJ,1701997589
525,fomboni,-12.28,43.7425,27.72,75,97,2.35,KM,1701997737
526,pokhara,28.2333,83.9833,11.75,78,1,1.7,NP,1701997738
527,molde,62.7375,7.1591,-4.01,74,2,5.14,NO,1701997739
528,chirala,15.8167,80.35,21.77,87,63,2.73,IN,1701997740
529,sandnessjoen,66.0217,12.6316,-10.71,74,100,8.2,NO,1701997740
530,xilin hot,43.9667,116.0333,-9.95,93,100,6.27,CN,1701997535
531,fort st. john,56.2499,-120.8529,-6.74,78,99,1.37,CA,1701997742
532,nishinoomote,30.7333,131.0,15.7,51,0,1.74,JP,1701997743
533,peskovka,59.0448,52.3606,-37.38,100,23,0.56,RU,1701997744
534,siracusa,37.0881,15.2792,9.88,54,19,2.67,IT,1701997745
535,farrukhnagar,17.0778,78.2011,16.84,96,17,2.74,IN,1701997746
536,ugoofaaru,5.6667,73.0,28.25,79,100,10.24,MV,1701997747
537,reitz,-27.8014,28.4273,14.4,93,98,2.91,ZA,1701997748
538,kendari,-3.945,122.4989,29.15,68,79,1.62,ID,1701997749
539,avsyunino,55.5652,39.1232,-18.87,99,64,2.21,RU,1701997750
540,lazaro cardenas,17.9583,-102.2,25.96,75,5,0.29,MX,1701997751
541,panguma,8.1833,-11.1333,20.86,96,3,0.54,SL,1701997752
542,chiredzi,-21.05,31.6667,19.39,78,0,2.53,ZW,1701997753
543,princeville,45.7668,-61.2985,-0.64,87,100,10.29,CA,1701997754
544,morondava,-20.2833,44.2833,25.8,85,54,6.06,MG,1701997655
545,mazatlan,23.2167,-106.4167,25.51,75,0,1.79,MX,1701997510
546,severodvinsk,64.5635,39.8302,-24.93,99,42,2.38,RU,1701997521
547,sakakah,29.9697,40.2064,15.76,56,1,3.82,SA,1701997757
548,kilindoni,-7.9139,39.6668,27.1,78,46,2.52,TZ,1701997758
549,chui,-33.6971,-53.4616,15.45,83,12,4.34,UY,1701997602
550,tobol'sk,58.2,68.2667,-31.33,95,8,1.79,RU,1701997759
551,severo-yeniseyskiy,60.3725,93.0408,-31.9,93,100,1.34,RU,1701997761
552,verkhovyna,48.1557,24.7911,-1.0,92,100,0.59,UA,1701997761
553,tsengel,49.4783,100.8894,-17.04,63,19,5.24,MN,1701997762
554,port douglas,-16.4833,145.4667,27.98,61,90,5.14,AU,1701997763
